[
  {
    "type": "feature",
    "properties": {
      "name": "biocity Leipzig",
      "url": "https://www.leipzig.de/kultur-und-freizeit/veranstaltungen/eventsingle/event/weihnachtsmarkt-in-der-bio-city",
      "street": "Deutscher Platz 5",
      "zipcode": "04103",
      "city": "Leipzig"
    },
    "geometry": {
      "type": "Point",
      "coordinates": [
        12.396130349158511,
        51.320754963330046
      ]
    }
  },
  {
    "type": "feature",
    "properties": {
      "name": "Kunst- und Gewerbehof HP7",
      "url": "https://www.leipzig.de/kultur-und-freizeit/veranstaltungen/eventsingle/event/hp7-weihnachts-kunst-designmarkt-kunst-gewerbehof-hp7",
      "street": "Hans-Poeche-Straße 7",
      "zipcode": "04103",
      "city": "Leipzig"
    },
    "geometry": {
      "type": "Point",
      "coordinates": [
        12.389737488331804,
        51.34390880217788
      ]
    }
  },
  {
    "type": "feature",
    "properties": {
      "name": "",
      "url": "https://www.leipzig.de/kultur-und-freizeit/veranstaltungen/eventsingle/event/weihnachtlich-winterlicher-floh-und-pflanzenmarkt-1",
      "street": "Theresienstraße 2",
      "zipcode": "04105",
      "city": "Leipzig"
    },
    "geometry": {
      "type": "Point",
      "coordinates": null
    }
  },
  {
    "type": "feature",
    "properties": {
      "name": "",
      "url": "https://www.leipzig.de/kultur-und-freizeit/veranstaltungen/eventsingle/event/lichterglanz-im-advent-der-weihnachtsmarkt-auf-der-feinkost-2025-7-20251129",
      "street": "Karl-Liebknecht-Straße 36",
      "zipcode": "04107",
      "city": "Leipzig"
    },
    "geometry": {
      "type": "Point",
      "coordinates": [
        12.372920115922552,
        51.32638005
      ]
    }
  },
  {
    "type": "feature",
    "properties": {
      "name": "Evangelisches Schulzentrum Leipzig",
      "url": "https://www.leipzig.de/kultur-und-freizeit/veranstaltungen/eventsingle/event/adventsmarkt-evangelisches-schulzentrum-leipzig",
      "street": "Schletterstraße 7",
      "zipcode": "04107",
      "city": "Leipzig"
    },
    "geometry": {
      "type": "Point",
      "coordinates": [
        12.377326976416107,
        51.33052975
      ]
    }
  },
  {
    "type": "feature",
    "properties": {
      "name": "",
      "url": "https://www.leipzig.de/kultur-und-freizeit/veranstaltungen/eventsingle/event/dark-xmas-markt",
      "street": "Kurt-Masur-Platz 1",
      "zipcode": "04109",
      "city": "Leipzig"
    },
    "geometry": {
      "type": "Point",
      "coordinates": [
        12.379120977358145,
        51.33732765
      ]
    }
  },
  {
    "type": "feature",
    "properties": {
      "name": "Kulturhof Gohlis",
      "url": "https://www.leipzig.de/kultur-und-freizeit/veranstaltungen/eventsingle/event/adventsmarkt-im-kulturhof-gohlis",
      "street": "Eisenacher Str. 72",
      "zipcode": "04155",
      "city": "Leipzig"
    },
    "geometry": {
      "type": "Point",
      "coordinates": [
        12.3592455,
        51.3623866
      ]
    }
  },
  {
    "type": "feature",
    "properties": {
      "name": "Gohliser Wannenbad",
      "url": "https://www.leipzig.de/kultur-und-freizeit/veranstaltungen/eventsingle/event/weihnachtsmarkt-im-hinterhof",
      "street": "Georg-Schumann-Straße 116",
      "zipcode": "04155",
      "city": "Leipzig"
    },
    "geometry": {
      "type": "Point",
      "coordinates": [
        12.359236933586,
        51.364352350000004
      ]
    }
  },
  {
    "type": "feature",
    "properties": {
      "name": "",
      "url": "https://www.leipzig.de/kultur-und-freizeit/veranstaltungen/eventsingle/event/adventsmarkt-in-der-friedenskirche",
      "street": "Kirchplatz 9",
      "zipcode": "04155",
      "city": "Leipzig"
    },
    "geometry": {
      "type": "Point",
      "coordinates": [
        12.368296286891194,
        51.35849549943842
      ]
    }
  },
  {
    "type": "feature",
    "properties": {
      "name": "",
      "url": "https://www.leipzig.de/kultur-und-freizeit/veranstaltungen/eventsingle/event/weihnachtsduft-und-lichterglanz-1-20251126",
      "street": "Menckestraße 23",
      "zipcode": "04155",
      "city": "Leipzig"
    },
    "geometry": {
      "type": "Point",
      "coordinates": [
        12.364272543167537,
        51.3567302
      ]
    }
  },
  {
    "type": "feature",
    "properties": {
      "name": "Versöhnungskirche",
      "url": "https://www.leipzig.de/kultur-und-freizeit/veranstaltungen/eventsingle/event/adventsmarkt-1",
      "street": "Franz-Mehring-Straße 44",
      "zipcode": "04157",
      "city": "Leipzig"
    },
    "geometry": {
      "type": "Point",
      "coordinates": [
        12.368551114828596,
        51.37182545
      ]
    }
  },
  {
    "type": "feature",
    "properties": {
      "name": "",
      "url": "https://www.leipzig.de/kultur-und-freizeit/veranstaltungen/eventsingle/event/weihnartsmarkt",
      "street": "Lindenthaler Straße 61-65",
      "zipcode": "04157",
      "city": "Leipzig"
    },
    "geometry": {
      "type": "Point",
      "coordinates": [
        12.3651967,
        51.3664422
      ]
    }
  },
  {
    "type": "feature",
    "properties": {
      "name": "Budde-Haus",
      "url": "https://www.leipzig.de/kultur-und-freizeit/veranstaltungen/eventsingle/event/advent-unterm-ginkgobaum-kulturweihnachtsmarkt-2",
      "street": "Lützowstraße 19",
      "zipcode": "04157",
      "city": "Leipzig"
    },
    "geometry": {
      "type": "Point",
      "coordinates": [
        12.373770817044264,
        51.36376455
      ]
    }
  },
  {
    "type": "feature",
    "properties": {
      "name": "Gnadenkirche Leipzig-Wahren",
      "url": "https://www.leipzig.de/kultur-und-freizeit/veranstaltungen/eventsingle/event/adventsmarkt-in-wahren",
      "street": "Opferweg",
      "zipcode": "04159",
      "city": "Leipzig"
    },
    "geometry": {
      "type": "Point",
      "coordinates": [
        12.320250590447642,
        51.37304325972033
      ]
    }
  },
  {
    "type": "feature",
    "properties": {
      "name": "Schlosskirche Lützschena",
      "url": "https://www.leipzig.de/kultur-und-freizeit/veranstaltungen/eventsingle/event/adventsmarkt-an-der-schlosskirche-1",
      "street": "Schloßweg 4",
      "zipcode": "04159",
      "city": "Leipzig"
    },
    "geometry": {
      "type": "Point",
      "coordinates": [
        12.280626073640347,
        51.3798625
      ]
    }
  },
  {
    "type": "feature",
    "properties": {
      "name": "Philippus-Biergarten",
      "url": "https://www.leipzig.de/kultur-und-freizeit/veranstaltungen/eventsingle/event/gluehgarten-20251130",
      "street": "Aurelienstraße 54",
      "zipcode": "04177",
      "city": "Leipzig"
    },
    "geometry": {
      "type": "Point",
      "coordinates": [
        12.329398002457262,
        51.33195125
      ]
    }
  },
  {
    "type": "feature",
    "properties": {
      "name": "Zum Wilden Heinz",
      "url": "https://www.leipzig.de/kultur-und-freizeit/veranstaltungen/eventsingle/event/lametta-for-heinz-kiezweihnachtsmarkt-1",
      "street": "Hähnelstr. 22",
      "zipcode": "04177",
      "city": "Leipzig"
    },
    "geometry": {
      "type": "Point",
      "coordinates": [
        12.3336456,
        51.3323738
      ]
    }
  },
  {
    "type": "feature",
    "properties": {
      "name": "Freiwillige Feuerwehr Böhlitz-Ehrenberg",
      "url": "https://www.leipzig.de/kultur-und-freizeit/veranstaltungen/eventsingle/event/weihnachtsmarkt-boehlitz-ehrenberg-2",
      "street": "Schönauer Landstraße 2A",
      "zipcode": "04178",
      "city": "Leipzig"
    },
    "geometry": {
      "type": "Point",
      "coordinates": [
        12.281574379850362,
        51.3599383
      ]
    }
  },
  {
    "type": "feature",
    "properties": {
      "name": "",
      "url": "https://www.leipzig.de/kultur-und-freizeit/veranstaltungen/eventsingle/event/felsenkeller-weihnachtsmarkt-2025",
      "street": "Karl-Heine-Straße 32",
      "zipcode": "04229",
      "city": "Leipzig"
    },
    "geometry": {
      "type": "Point",
      "coordinates": [
        12.338524469058852,
        51.3328217
      ]
    }
  },
  {
    "type": "feature",
    "properties": {
      "name": "Bootsverleih Klingerweg",
      "url": "https://www.leipzig.de/kultur-und-freizeit/veranstaltungen/eventsingle/event/1-leipziger-wasser-weihnachtsmarkt",
      "street": "Klingerweg 2",
      "zipcode": "04229",
      "city": "Leipzig"
    },
    "geometry": {
      "type": "Point",
      "coordinates": null
    }
  },
  {
    "type": "feature",
    "properties": {
      "name": "Markthalle Plagwitz",
      "url": "https://www.leipzig.de/kultur-und-freizeit/veranstaltungen/eventsingle/event/weihnachtsmarkt-plagwitzer-markthalle",
      "street": "Markranstädter Straße 8",
      "zipcode": "04229",
      "city": "Leipzig"
    },
    "geometry": {
      "type": "Point",
      "coordinates": [
        12.3301055,
        51.3255505
      ]
    }
  },
  {
    "type": "feature",
    "properties": {
      "name": "",
      "url": "https://www.leipzig.de/kultur-und-freizeit/veranstaltungen/eventsingle/event/weihnachten-am-kreuz-3",
      "street": "Kochstraße 132",
      "zipcode": "04277",
      "city": "Leipzig"
    },
    "geometry": {
      "type": "Point",
      "coordinates": [
        12.3713723,
        51.3100496
      ]
    }
  },
  {
    "type": "feature",
    "properties": {
      "name": "",
      "url": "https://www.leipzig.de/kultur-und-freizeit/veranstaltungen/eventsingle/event/weihnachten-am-kreuz-1",
      "street": "Windscheidstraße 51",
      "zipcode": "04277",
      "city": "Leipzig"
    },
    "geometry": {
      "type": "Point",
      "coordinates": null
    }
  },
  {
    "type": "feature",
    "properties": {
      "name": "Dölitzer Wassermühle",
      "url": "https://www.leipzig.de/kultur-und-freizeit/veranstaltungen/eventsingle/event/adventsmarkt-in-der-doelitzer-wassermuehle",
      "street": "Vollhardtstraße 16",
      "zipcode": "04279",
      "city": "Leipzig"
    },
    "geometry": {
      "type": "Point",
      "coordinates": [
        12.3879410063287,
        51.288879550000004
      ]
    }
  },
  {
    "type": "feature",
    "properties": {
      "name": "Gutshof Stötteritz",
      "url": "https://www.leipzig.de/kultur-und-freizeit/veranstaltungen/eventsingle/event/stoetteritzer-adventsmarkt",
      "street": "Oberdorfstraße 15",
      "zipcode": "04299",
      "city": "Leipzig"
    },
    "geometry": {
      "type": "Point",
      "coordinates": [
        12.42410554555071,
        51.321633649999995
      ]
    }
  },
  {
    "type": "feature",
    "properties": {
      "name": "Stadtgut Mölkau",
      "url": "https://www.leipzig.de/kultur-und-freizeit/veranstaltungen/eventsingle/event/weihnachtsmarkt-im-stadtgut-moelkau",
      "street": "Kelbestraße 3",
      "zipcode": "04316",
      "city": "Leipzig"
    },
    "geometry": {
      "type": "Point",
      "coordinates": [
        12.452295913043997,
        51.32651855886607
      ]
    }
  },
  {
    "type": "feature",
    "properties": {
      "name": "Schloss Schönefeld",
      "url": "https://www.leipzig.de/kultur-und-freizeit/veranstaltungen/eventsingle/event/weihnachtsmarkt-2025-am-schloss-schoenefeld",
      "street": "Zeumerstraße 1",
      "zipcode": "04347",
      "city": "Leipzig"
    },
    "geometry": {
      "type": "Point",
      "coordinates": [
        12.4068202,
        51.3596269
      ]
    }
  },
  {
    "type": "feature",
    "properties": {
      "name": "",
      "url": "https://www.leipzig.de/kultur-und-freizeit/veranstaltungen/eventsingle/event/advent-im-park",
      "street": "Kees'scher Park 1",
      "zipcode": "04416",
      "city": "Markkleeberg,"
    },
    "geometry": {
      "type": "Point",
      "coordinates": [
        12.35611786931463,
        51.27981792051426
      ]
    }
  },
  {
    "type": "feature",
    "properties": {
      "name": "",
      "url": "https://www.leipzig.de/kultur-und-freizeit/veranstaltungen/eventsingle/event/weihnachtsmarkt-im-schlosshof-am-torhaus-markkleeberg",
      "street": "Kirchstraße 40",
      "zipcode": "04416",
      "city": "Markkleeberg"
    },
    "geometry": {
      "type": "Point",
      "coordinates": [
        12.3894607903441,
        51.277715799999996
      ]
    }
  },
  {
    "type": "feature",
    "properties": {
      "name": "",
      "url": "https://www.leipzig.de/kultur-und-freizeit/veranstaltungen/eventsingle/event/adventsmarkt-2-20251129",
      "street": "Teichstraße 7",
      "zipcode": "04435",
      "city": "Schkeuditz"
    },
    "geometry": {
      "type": "Point",
      "coordinates": null
    }
  },
  {
    "type": "feature",
    "properties": {
      "name": "Biedermeierstrand Hayna",
      "url": "https://www.leipzig.de/kultur-und-freizeit/veranstaltungen/eventsingle/event/viktorianischer-weihnachtsmarkt-1",
      "street": "Zur Schafhöhe ",
      "zipcode": "04435",
      "city": "Schkeuditz"
    },
    "geometry": {
      "type": "Point",
      "coordinates": null
    }
  },
  {
    "type": "feature",
    "properties": {
      "name": "Hafen Zwenkauer See",
      "url": "https://www.leipzig.de/kultur-und-freizeit/veranstaltungen/eventsingle/event/hafenweihnacht-am-zwenkauer-see",
      "street": "An der Mole",
      "zipcode": "04442",
      "city": "Zwenckau"
    },
    "geometry": {
      "type": "Point",
      "coordinates": null
    }
  },
  {
    "type": "feature",
    "properties": {
      "name": "Park Miltitz",
      "url": "https://www.leipzig.de/kultur-und-freizeit/veranstaltungen/eventsingle/event/weihnachtsmarkt-10",
      "street": "Geschwister-Scholl-Str. 8a"
    },
    "geometry": {
      "type": "Point",
      "coordinates": [
        12.256178495191364,
        51.3218316
      ]
    }
  },
  {
    "type": "feature",
    "properties": {
      "name": "Leipziger Innenstadt",
      "url": "https://www.leipzig.de/kultur-und-freizeit/veranstaltungen/eventsingle/event/leipziger-weihnachtsmarkt-2023-1-1",
      "street": "Markt"
    },
    "geometry": {
      "type": "Point",
      "coordinates": [
        12.374693129488247,
        51.340578550000004
      ]
    }
  },
  {
    "type": "feature",
    "properties": {
      "name": "Rathausplatz Markkleeberg",
      "url": "https://www.leipzig.de/kultur-und-freizeit/veranstaltungen/eventsingle/event/weihnachtsmarkt-rund-ums-eis",
      "street": "Rathausplatz"
    },
    "geometry": {
      "type": "Point",
      "coordinates": [
        12.3769892,
        51.2803595
      ]
    }
  },
  {
    "type": "feature",
    "properties": {
      "name": "Kleinzschocher",
      "url": "https://www.leipzig.de/kultur-und-freizeit/veranstaltungen/eventsingle/event/advent-in-den-hoefen-kleinzschochers-1",
      "street": "Windorfer Straße 49"
    },
    "geometry": {
      "type": "Point",
      "coordinates": [
        12.327702615219494,
        51.3151051
      ]
    }
  },
  {
    "type": "feature",
    "properties": {
      "name": "Zuckelhausener Teich",
      "url": "https://www.leipzig.de/kultur-und-freizeit/veranstaltungen/eventsingle/event/weihnachtsmarkt-holzhausen",
      "street": "Zuckelhausener Ring 17"
    },
    "geometry": {
      "type": "Point",
      "coordinates": null
    }
  }
]